{
  "type": "FeatureCollection",
  "features": [
    {
      "latitude": 47.8991593,
      "longitude": 1.906665299999986,
      "name": "Au bon marché",
      "address": "12 Place du châtelet, 45000 Orléans"
    },
    {
      "latitude": 43.6117398,
      "longitude": 3.878945799999997,
      "name": "La Mezzanine",
      "address": "39 Rue de l'Aiguillerie 34000 Montpellier"
    },
    {
      "latitude": 48.8628544,
      "longitude": 2.3495186000000103,
      "name": "Ravioli Nord Est",
      "address": "115 Rue Saint-Denis 75001 Paris"
    },
    {
      "latitude": 43.5981845,
      "longitude": 1.4442781999999852,
      "name": "Batbat",
      "address": "8 Rue des Filatiers, 31000 Toulouse"
    },
    {
      "latitude": 43.2996407,
      "longitude": 5.384010799999942,
      "name": "Les Ondines",
      "address": "19 rue St-Bazile 13001 Marseille"
    },
    {
      "latitude": 51.03530259999999,
      "longitude": 2.379811199999949,
      "name": "Green is better",
      "address": "35 Rue du Président Poincaré, 59140 Dunkerque"
    },
    {
      "latitude": 49.182863,
      "longitude": -0.37067899999999554,
      "name": "Un sourire dans l'assiette",
      "address": "Caen\n"
    },
    {
      "latitude": 50.6202627,
      "longitude": 3.0520354000000225,
      "name": "Cantine vegan du Centre Culturel Libertaire",
      "address": "4 rue de Colmar 59000 LILLE"
    },
    {
      "latitude": 45.8238121,
      "longitude": 4.7920345,
      "name": "Cigkoftem — Lyon",
      "address": "17 avenue Jean Jaurès, 69003 Lyon"
    },
    {
      "latitude": 48.8432286,
      "longitude": 2.3853430000000344,
      "name": "PIGUT Stages gourmands de cuisine bio végétale",
      "address": "Rue de Charenton 75012 Paris"
    },
    {
      "latitude": 47.3234548,
      "longitude": 5.036514500000067,
      "name": "Lulu Graine d'un Monde",
      "address": "12 Rue de la Poste, 21000 Dijon"
    },
    {
      "latitude": 50.6379514,
      "longitude": 3.0694588000000067,
      "name": "Houé",
      "address": "15 Rue du Vieux Faubourg 59000 Lille"
    },
    {
      "latitude": 49.1220943,
      "longitude": 6.177954799999952,
      "name": "Les petits zozios",
      "address": "35 rue des Jardins, 57000 Metz"
    },
    {
      "latitude": 48.827477,
      "longitude": 2.3256708539454,
      "name": "Caprice café",
      "address": "12 avenue Jean Moulin, 75014 Paris"
    },
    {
      "latitude": 42.6983003,
      "longitude": 2.8962433000000374,
      "name": "La révolution verte",
      "address": "5 Rue du Théâtre, 66000 Perpignan"
    },
    {
      "latitude": 43.61173360000001,
      "longitude": 3.8781593999999586,
      "name": "Les demoiselles de Montpellier",
      "address": "2, rue de la Carbonnerie, 34000 Montpellier"
    },
    {
      "latitude": 44.620909,
      "longitude": 4.389862999999991,
      "name": "La pause verte",
      "address": "Aubenas"
    },
    {
      "latitude": 47.0842523,
      "longitude": 2.398937599999954,
      "name": "Les trois cuillères",
      "address": "38 rue Bourbonnoux 18000 Bourges"
    },
    {
      "latitude": 47.7468644,
      "longitude": 7.3336289999999735,
      "name": "BIOfresh",
      "address": "36 rue de l'arsenal 68100 Mulhouse"
    },
    {
      "latitude": 48.8811256,
      "longitude": 2.312641900000017,
      "name": "Rimal",
      "address": "94 bd Malesherbes, 75017 Paris"
    },
    {
      "latitude": 43.7039464,
      "longitude": 7.265218600000026,
      "name": "Alounak",
      "address": "3, rue Alsace Lorraine, 06000 Nice"
    },
    {
      "latitude": 48.8283773,
      "longitude": 2.3261454999999387,
      "name": "L'éphémère",
      "address": "228 Avenue du Maine, 75014 Paris"
    },
    {
      "latitude": 50.624249,
      "longitude": 3.0644181999999773,
      "name": "Liquium",
      "address": "71 Rue Jeanne d'Arc, 59000 Lille"
    },
    {
      "latitude": 48.8629889,
      "longitude": 2.3640720999999303,
      "name": "Ob-La-Di Café",
      "address": "54 rue de Saintonge, 75003 Paris"
    },
    {
      "latitude": 48.8754847,
      "longitude": 2.349204900000018,
      "name": "Le tricycle",
      "address": "51 rue de Paradis, 75010 Paris"
    },
    {
      "latitude": 47.394694,
      "longitude": 0.6829205000000229,
      "name": "Habibi 2.0",
      "address": "100 rue du commerce 37000 Tours"
    },
    {
      "latitude": 49.4978279,
      "longitude": 0.11168050000003404,
      "name": "Casse-Noisette",
      "address": "92 rue Docteur Vigne 76600 Le Havre"
    },
    {
      "latitude": 47.8985272,
      "longitude": 1.9074282999999923,
      "name": "Oh Terroir (version Fast Good)",
      "address": "3 rue des Halles 45000 Orléans"
    },
    {
      "latitude": 49.107342,
      "longitude": 6.179083499999933,
      "name": "Le GREEN se met au Vert",
      "address": "24, avenue Francois Mitterrand 57000 Metz"
    },
    {
      "latitude": 48.88816809999999,
      "longitude": 2.3624482999999827,
      "name": "Les Petites Gouttes",
      "address": "12 esplanade Nathalie Sarraute, 75018 PARIS"
    },
    {
      "latitude": 48.8653337,
      "longitude": 2.350294500000018,
      "name": "Twinkie",
      "address": "167 Rue Saint-Denis, 75002 Paris"
    },
    {
      "latitude": 50.4366525,
      "longitude": 30.52031110000007,
      "name": "I Live Coffee",
      "address": "Esplanadna St, 32, Kiev, Ukraine"
    },
    {
      "latitude": 49.2572048,
      "longitude": 4.031408599999963,
      "name": "Chez Lou",
      "address": "4 rue de Pouilly, 51100 Reims"
    },
    {
      "latitude": 48.5860789,
      "longitude": 7.770806799999946,
      "name": "Velicious",
      "address": "43 rue Geiler, 67000 Strasbourg"
    },
    {
      "latitude": 45.9040336,
      "longitude": 6.1303067000000055,
      "name": "Granny Smith",
      "address": "4, Rue Louis Revon, 74000 Annecy"
    },
    {
      "latitude": 50.62750570000001,
      "longitude": 3.0621737999999823,
      "name": "Wally's coffee",
      "address": "19 place Philippe Lebon, 59000 Lille"
    },
    {
      "latitude": 48.869522,
      "longitude": 2.356062100000031,
      "name": "Distrito Francés",
      "address": "10 rue du faubourg Saint Martin, 75010 Paris"
    },
    {
      "latitude": 45.591055,
      "longitude": 4.0725932000000284,
      "name": "Aux idées reçues",
      "address": "15 rue de st antheme 42600 moingt (Monbrison)"
    },
    {
      "latitude": 43.96010709999999,
      "longitude": 4.723457999999937,
      "name": "Ooh la la Obanyaki",
      "address": "Vaucluse, Gard, Hérault"
    },
    {
      "latitude": 48.8487257,
      "longitude": 2.3402840999999626,
      "name": "Furahaa Candy",
      "address": "44, rue Monsieur le Prince 75006 Paris"
    },
    {
      "latitude": 48.8790612,
      "longitude": 2.3447297000000162,
      "name": "Le Potager de Charlotte",
      "address": "12 Rue de la Tour d'Auvergne, 75009 Paris"
    },
    {
      "latitude": 48.8671055,
      "longitude": 2.3325439000000188,
      "name": "Terra Culinaria Gastronomie Végétale",
      "address": "36 Place du Marché Saint Honoré 75001 Paris"
    },
    {
      "latitude": 50.630458,
      "longitude": 3.050794699999983,
      "name": "Pizza Jazz",
      "address": "56 rue des Stations, 59000 Lille"
    },
    {
      "latitude": 50.645516,
      "longitude": 5.577735100000041,
      "name": "Bo Bun",
      "address": "19-21 rue de la Boucherie Liège, Belgique"
    },
    {
      "latitude": 48.8509611,
      "longitude": 2.3325241000000005,
      "name": "Yoom — Maison de la Chine",
      "address": "76 rue Bonaparte 75006 Paris"
    },
    {
      "latitude": 48.8736475,
      "longitude": 2.332238299999972,
      "name": "Yoom — Galeries Lafayette",
      "address": "40 boulevard Haussmann 75009 Paris"
    },
    {
      "latitude": 48.8779067,
      "longitude": 2.339644099999987,
      "name": "Yoom — Rue des Martyrs",
      "address": "20 rue des Martyrs 75009 Paris"
    },
    {
      "latitude": 48.88377329999999,
      "longitude": 2.321624799999995,
      "name": "Yoom — Batignolles",
      "address": "59 rue des Dames 75017 Paris"
    },
    {
      "latitude": 48.8534332,
      "longitude": 2.3379712999999356,
      "name": "Yoom — St Germain des Prés",
      "address": "5 rue Grégoire de Tours 75006 Paris"
    },
    {
      "latitude": 46.5138205,
      "longitude": 6.617969600000038,
      "name": "Veganopolis Café",
      "address": "Avenue des Bains 4C, 1007 Lausanne, Suisse"
    },
    {
      "latitude": 48.8643649,
      "longitude": 2.341499399999975,
      "name": "La guinguette d'Angèle",
      "address": "34 rue Coquillière 75001 Paris"
    },
    {
      "latitude": 48.8521295,
      "longitude": 2.340991499999973,
      "name": "La vie en fruits",
      "address": "116 Boulevard Saint-Germain, 75006 Paris"
    },
    {
      "latitude": 48.8554002,
      "longitude": 2.381553800000006,
      "name": "Bears & Raccoons",
      "address": "21 Rue Richard Lenoir, 75011 Paris"
    },
    {
      "latitude": 48.8755834,
      "longitude": 2.3487668000000212,
      "name": "Le Veganovore",
      "address": "55 rue de Paradis 75010 Paris"
    },
    {
      "latitude": -17.5516251,
      "longitude": -149.5584758,
      "name": "Le J'Âm",
      "address": "10, rue Charles Vienot - BP 42430, Papeete"
    },
    {
      "latitude": 48.5826194,
      "longitude": 7.7390764916568,
      "name": "Fior di pizza",
      "address": "2 Grand Rue, 67000 Strasbourg"
    },
    {
      "latitude": 48.864588,
      "longitude": 2.3686749999999392,
      "name": "Veg'Art",
      "address": "123 rue d'Oberkampf 75011 Paris"
    },
    {
      "latitude": 48.8733032,
      "longitude": 2.3647123000000647,
      "name": "Carmen Ragosta",
      "address": "8 rue de la grange aux belles 75010 Paris"
    },
    {
      "latitude": 45.7521535,
      "longitude": 4.840260899999976,
      "name": "Fahima Tandoori",
      "address": "36 Rue de Marseille, 69007 Lyon"
    },
    {
      "latitude": 35.6633635,
      "longitude": 139.71274979999998,
      "name": "Pure Cafe",
      "address": "5 Chome-5-２１ Minamiaoyama, Minato, Tokyo 107-0062, Japon"
    },
    {
      "latitude": 48.82747699999999,
      "longitude": 2.3255344000000377,
      "name": "Caprice Café",
      "address": "12 Avenue Jean Moulin, 75014 Paris"
    },
    {
      "latitude": 48.8484638,
      "longitude": 2.3781980999999632,
      "name": "La boucherie végétarienne",
      "address": "10 place d'aligre, 75012 Paris"
    },
    {
      "latitude": 48.86782909999999,
      "longitude": 2.343478399999981,
      "name": "Le So",
      "address": "93 Rue Montmartre, 75002 Paris"
    },
    {
      "latitude": 16.1302222,
      "longitude": -61.593810899999994,
      "name": "Passe le mic",
      "address": "Chemin des Mineurs, Goyave, Guadeloupe"
    },
    {
      "latitude": 43.6128233,
      "longitude": 3.876791899999944,
      "name": "La Coutinelle",
      "address": "25 rue de l'université 34070 Montpellier"
    },
    {
      "latitude": 16.265,
      "longitude": -61.55099999999999,
      "name": "Smooth'Sea",
      "address": "Rue Benoît Cassin, Les Saintes (commune de Terre-de-Haut), Guadeloupe"
    },
    {
      "latitude": 16.265,
      "longitude": -61.55099999999999,
      "name": "Snack",
      "address": "Rue Théodore Samson, Les Saintes (commune de Terre-de-Haut), Guadeloupe"
    },
    {
      "latitude": 16.265,
      "longitude": -61.55099999999999,
      "name": "Escale Créole",
      "address": "419 Route du Bois-Joli, Les Saintes (commune de Terre-de-Haut), Guadeloupe"
    },
    {
      "latitude": 48.0741097,
      "longitude": 7.356944500000054,
      "name": "100% le bar à jus",
      "address": "2 rue Saint Jean 68000 Colmar"
    },
    {
      "latitude": 44.08851,
      "longitude": -1.3131465000000162,
      "name": "Psychédélice",
      "address": "1003 avenue de l'océean, 40170 Contis Plage"
    },
    {
      "latitude": 48.8750843,
      "longitude": 2.3484588999999687,
      "name": "Eatme — Poissonnière",
      "address": "58 Rue du Faubourg Poissonnière, 75010 Paris, France"
    },
    {
      "latitude": 48.8739998,
      "longitude": 2.3037233000000015,
      "name": "Eatme — Washington",
      "address": "35 Rue de Washington, 75008 Paris, France"
    },
    {
      "latitude": 48.8715061,
      "longitude": 2.3215324000000237,
      "name": "Eatme — Anjou",
      "address": "29 Rue d'Anjou, Paris, France"
    },
    {
      "latitude": 48.8667452,
      "longitude": 2.3444887000000563,
      "name": "Eatme — Montorgueil",
      "address": "38 Rue Léopold Bellan, 75002 Paris, France"
    },
    {
      "latitude": 48.87369839999999,
      "longitude": 2.3480606000000535,
      "name": "Fée Nature — Paris 10",
      "address": "40 bis, rue du faubourg Poissonnière 75010 Paris"
    },
    {
      "latitude": 48.866398,
      "longitude": 2.343939999999975,
      "name": "Fée Nature — Paris 2",
      "address": "69 rue d'Argout 75002 Paris"
    },
    {
      "latitude": 46.121399,
      "longitude": 3.42154000000005,
      "name": "Keck's Café",
      "address": "16 Rue d'Allier, 03200 Vichy"
    },
    {
      "latitude": 48.8649903,
      "longitude": 2.375336500000003,
      "name": "Slize",
      "address": "52 avenue de la République, 75011 Paris"
    },
    {
      "latitude": 48.85221010000001,
      "longitude": 2.3714182999999593,
      "name": "Végé saveurs",
      "address": "29 rue de Charenton 75012 Paris"
    },
    {
      "latitude": 43.5290148,
      "longitude": 5.447942900000044,
      "name": "Le Pain Quotidien — Aix en Provence",
      "address": "5 place Richelme, 13100 Aix en Provence"
    },
    {
      "latitude": -23.5581675,
      "longitude": -46.67939799999999,
      "name": "Barão Natural",
      "address": "Rua João Moura, 861. Pinheiros. São Paulo - SP. Brasil"
    },
    {
      "latitude": 48.5835936,
      "longitude": 7.742047299999967,
      "name": "Cigkoftem — Strasbourg",
      "address": "3 Place du Vieux Marché aux Vins, 67000 Strasbourg"
    },
    {
      "latitude": 48.5826194,
      "longitude": 7.738940700000057,
      "name": "Lacocina",
      "address": "2 Grand Rue, 67000 Strasbourg"
    },
    {
      "latitude": 47.0187693,
      "longitude": -2.2970560999999634,
      "name": "D'île en île",
      "address": "104 avenue Mourain, l'Herbaudière, Noirmoutier"
    },
    {
      "latitude": 43.2920007,
      "longitude": 5.383589499999971,
      "name": "La baie du dragon",
      "address": "8 Place Notre Dame du Mont, 13006 Marseille"
    },
    {
      "latitude": 42.2685623,
      "longitude": 2.960196300000007,
      "name": "Integral",
      "address": "c/La Jonquera, 30 Figueres, Espagne"
    },
    {
      "latitude": 41.9750089,
      "longitude": 2.822330700000066,
      "name": "Veggana",
      "address": "c/ Rutlla, 108 Girona, Espagne"
    },
    {
      "latitude": 41.9832309,
      "longitude": 2.8245881999999938,
      "name": "B12",
      "address": "Plaça del vi, 11 Girona, Espagne"
    },
    {
      "latitude": 41.9840818,
      "longitude": 2.8217054000000417,
      "name": "Bionectar",
      "address": "Carrer Eiximenis, 8 Girona, Espagne"
    },
    {
      "latitude": 48.88938230000001,
      "longitude": 2.3467008999999734,
      "name": "Super Naturelle",
      "address": "34 Rue Ramey, 75018 Paris"
    },
    {
      "latitude": 52.5062708,
      "longitude": 13.46531129999994,
      "name": "Laauma",
      "address": "Sonntagstraße 26, 10245 Berlin, Allemagne"
    },
    {
      "latitude": 52.5078805,
      "longitude": 13.45003029999998,
      "name": "The Bowl",
      "address": "Warschauer Str. 33, 10243 Berlin, Allemagne"
    },
    {
      "latitude": 48.8669756,
      "longitude": 2.3372008999999707,
      "name": "Kapunka",
      "address": "59 Rue de Richelieu, 75002 Paris"
    },
    {
      "latitude": 48.8518726,
      "longitude": 2.3487846000000445,
      "name": "Aux Arts etc",
      "address": "15 Quai de Montebello, 75005 Paris, France"
    },
    {
      "latitude": 48.8707923,
      "longitude": 2.349901300000056,
      "name": "Las Vegans",
      "address": "30 Boulevard de Bonne Nouvelle, 75010 Paris"
    },
    {
      "latitude": 47.216883,
      "longitude": -1.554871300000059,
      "name": "La Table des Roy",
      "address": "4 Rue des Trois Croissants, 44000 Nantes"
    },
    {
      "latitude": 48.87338889999999,
      "longitude": 2.342957100000035,
      "name": "Nick's Pizza",
      "address": "24 Rue du Faubourg Montmartre, 75009 Paris"
    },
    {
      "latitude": 48.860764,
      "longitude": 1.4544869999999719,
      "name": "Aneth et Ciboulette",
      "address": "2 boulevard des 4 Arpents ZA le Débucher 28260 Anet"
    },
    {
      "latitude": 48.83968850000001,
      "longitude": 2.35583280000003,
      "name": "Crêpe de la joie",
      "address": "4 rue du Fer à Moulin 75005 Paris"
    },
    {
      "latitude": 47.2059528,
      "longitude": -1.5565034999999625,
      "name": "Terroirs Bio",
      "address": "9 Rue Alain Barbe Torte, 44000 Nantes"
    },
    {
      "latitude": 48.8570739,
      "longitude": 2.3659651000000395,
      "name": "Le café chinois",
      "address": "7 Rue de Béarn, 75003 Paris"
    },
    {
      "latitude": 52.5090912,
      "longitude": 13.46599029999993,
      "name": "Almodóvar Hotel",
      "address": "Boxhagener Str. 83, 10245 Berlin, Allemagne"
    },
    {
      "latitude": 48.853568,
      "longitude": 2.340033500000004,
      "name": "Crêperie Saint Germain",
      "address": "33 rue St André des Arts 75006 Paris"
    },
    {
      "latitude": 48.8641804,
      "longitude": 2.3362478999999894,
      "name": "AntiCafé — Louvre",
      "address": "10 rue de Richelieu 75001 Paris"
    },
    {
      "latitude": 48.8254416,
      "longitude": 2.3665593000000626,
      "name": "Anticafé — Olympiades",
      "address": "59 Rue Nationale 75013 PARIS"
    },
    {
      "latitude": 45.77952519999999,
      "longitude": 4.834411100000011,
      "name": "Color Vegan",
      "address": "23 rue pailleron 69004 Lyon"
    },
    {
      "latitude": 50.64660259999999,
      "longitude": 5.576818099999969,
      "name": "Goveg vegan shop",
      "address": "Rue Hors-Château 14, 4000 Liège, Belgique"
    },
    {
      "latitude": 47.2164303,
      "longitude": -1.5560659000000214,
      "name": "Trésors Partagés",
      "address": "10 Rue des 3 Croissants, 44000 Nantes, France"
    },
    {
      "latitude": 43.923248,
      "longitude": 4.5269570000000385,
      "name": "Les Pierrafeu",
      "address": "Chemin de Ledenon, 30210 Saint-Bonnet-du-Gard, France"
    },
    {
      "latitude": 48.8795607,
      "longitude": 2.39215020000006,
      "name": "Paint It Green Vegan",
      "address": "78 rue Compans, Paris XIX"
    },
    {
      "latitude": 43.59167500000001,
      "longitude": 1.433854999999994,
      "name": "Le cri de la carotte",
      "address": "304 Avenue de Muret, 31300 Toulouse, France"
    },
    {
      "latitude": 48.86785,
      "longitude": 2.3567849999999453,
      "name": "Un Monde Vegan",
      "address": "64 Rue Notre Dame de Nazareth, 75003 Paris, France"
    },
    {
      "latitude": 48.904802,
      "longitude": 2.3220039999999926,
      "name": "Cojean — Saint Ouen",
      "address": "150 Boulevard Victor Hugo, 93400 Saint-Ouen, France"
    },
    {
      "latitude": 48.5822782,
      "longitude": 7.743225100000018,
      "name": "What the cake ?",
      "address": "51 Rue du Fossé des Tanneurs, 67000 Strasbourg"
    },
    {
      "latitude": 48.867677,
      "longitude": 2.3244770000000017,
      "name": "Toraya Paris",
      "address": "10 Rue Saint-Florentin, 75001 Paris, France"
    },
    {
      "latitude": 48.863751,
      "longitude": 2.346375999999964,
      "name": "Charles Chocolatier",
      "address": "15 Rue Montorgueil, 75001 Paris, France"
    },
    {
      "latitude": 48.8614105,
      "longitude": 2.380804399999988,
      "name": "In the Garden",
      "address": "39 Rue Saint-Maur, 75011 Paris, France"
    },
    {
      "latitude": 48.447988,
      "longitude": 1.4870769999999993,
      "name": "Le Cloitre Gourmand",
      "address": "21 Cloître Notre Dame, 28000 Chartres, France"
    },
    {
      "latitude": 46.579457,
      "longitude": 0.3393019999999751,
      "name": "Le Bonheur est dans le Thé",
      "address": "7 Rue Sadi Carnot, 86000 Poitiers, France"
    },
    {
      "latitude": 48.869021,
      "longitude": 2.304100999999946,
      "name": "Charbon Rouge",
      "address": "25 Rue Marbeuf, 75008 Paris, France"
    },
    {
      "latitude": 48.860754,
      "longitude": 2.3670190000000275,
      "name": "Cantine Merci",
      "address": "111 Boulevard Beaumarchais, 75003 Paris, France"
    },
    {
      "latitude": 49.05039800000001,
      "longitude": 2.0970519999999624,
      "name": "La Cerise Gourmande",
      "address": "49 Rue de l'Hôtel de ville, 95300 Pontoise, France"
    },
    {
      "latitude": 48.898255,
      "longitude": 2.2821460000000116,
      "name": "Soup & Juice — Levallois",
      "address": "34 Avenue de l'Europe, 92300 Levallois-Perret, France"
    },
    {
      "latitude": 48.880351000000005,
      "longitude": 2.326948000000016,
      "name": "Soup & Juice - Rue d'Amsterdam",
      "address": "55 Rue d'Amsterdam, 75009 Paris, France"
    },
    {
      "latitude": 48.872935,
      "longitude": 2.2974169999999963,
      "name": "Soup & Juice — Champs Elysées",
      "address": "133 Avenue des Champs-Élysées, 75008 Paris, France"
    },
    {
      "latitude": 48.876786,
      "longitude": 2.330410000000029,
      "name": "Soup & Juice — Rue de Londres",
      "address": "4 Rue de Londres, 75009 Paris, France"
    },
    {
      "latitude": 48.868764,
      "longitude": 2.2910620000000113,
      "name": "Soup & Juice — Kléber",
      "address": "54 Avenue Kléber, 75116 Paris, France"
    },
    {
      "latitude": 48.874342,
      "longitude": 2.3331080000000384,
      "name": "Cojean — Provence",
      "address": "66 Rue de Provence, 75009 Paris, France"
    },
    {
      "latitude": 48.868288,
      "longitude": 2.3420079999999643,
      "name": "Cojean — Bourse",
      "address": "121 Rue Réaumur, 75002 Paris, France"
    },
    {
      "latitude": 48.872631,
      "longitude": 2.3346990000000005,
      "name": "Cojean — Haussmann",
      "address": "17 Boulevard Haussmann, 75009 Paris, France"
    },
    {
      "latitude": 48.859381000000006,
      "longitude": 2.3402429999999868,
      "name": "Cojean — Louvre",
      "address": "3 Place du Louvre, 75001 Paris, France"
    },
    {
      "latitude": 48.870432,
      "longitude": 2.3273360000000594,
      "name": "Cojean — Madeleine",
      "address": "6 Rue de Sèze, 75009 Paris, France"
    },
    {
      "latitude": 48.853386,
      "longitude": 2.375917999999956,
      "name": "Le Bar à Soupes",
      "address": "33 Rue de Charonne, 75011 Paris, France"
    },
    {
      "latitude": 48.866689,
      "longitude": 2.3854730000000473,
      "name": "Les Trois 8",
      "address": "11 Rue Victor Letalle, 75020 Paris, France"
    },
    {
      "latitude": 50.634746,
      "longitude": 3.060854000000063,
      "name": "Be Yourself !",
      "address": "2 Square Morisson, 59800 Lille, France"
    },
    {
      "latitude": 53.54571800000001,
      "longitude": 9.951833999999963,
      "name": "Liberty Eiscafé & Bistro",
      "address": "Fischmarkt 11, 22767 Hamburg, Allemagne"
    },
    {
      "latitude": 48.85805,
      "longitude": 2.3687850000000026,
      "name": "Maison Bastille",
      "address": "34 Rue Amelot, 75011 Paris, France"
    },
    {
      "latitude": 48.875761000000004,
      "longitude": 2.3477699999999686,
      "name": "My free kitchen",
      "address": "1bis Rue Bleue, 75010 Paris, France"
    },
    {
      "latitude": 48.865338,
      "longitude": 2.3620819999999867,
      "name": "Lily of the Valley",
      "address": "12 Rue Dupetit-Thouars, 75003 Paris, France"
    },
    {
      "latitude": 48.87351,
      "longitude": 2.3706520000000637,
      "name": "Lula Lifestyle Shop",
      "address": "216 Rue Saint-Maur, 75010 Paris, France"
    },
    {
      "latitude": 48.869809,
      "longitude": 2.344701500000042,
      "name": "We Are Juice",
      "address": "34 Rue des Jeuneurs, 75002 Paris"
    },
    {
      "latitude": 43.7742839,
      "longitude": 11.250562100000025,
      "name": "Shake Café",
      "address": "Via degli Avelli, 2, 50123 Firenze, Italie"
    },
    {
      "latitude": 52.51044000000001,
      "longitude": 13.460843000000068,
      "name": "Der Eisbärliner",
      "address": "Gärtnerstraße 11, 10245 Berlin, Allemagne"
    },
    {
      "latitude": 52.501052,
      "longitude": 13.431106999999997,
      "name": "Eissalon Tanne B",
      "address": "Eisenbahnstraße 48, 10997 Berlin, Allemagne"
    },
    {
      "latitude": 52.541281,
      "longitude": 13.415170999999987,
      "name": "Chaostheorie",
      "address": "Lychener Straße 4, 10437 Berlin, Allemagne"
    },
    {
      "latitude": 50.94072999999999,
      "longitude": 6.879979999999932,
      "name": "Pennycakes",
      "address": "Alter Militärring 68, 50933 Köln, Allemagne"
    },
    {
      "latitude": 51.461741,
      "longitude": -0.1132999999999811,
      "name": "Ms. Cupcake",
      "address": "408 Coldharbour Lane, London SW9 8LF, Royaume-Uni"
    },
    {
      "latitude": 47.214536,
      "longitude": -1.5542540000000145,
      "name": "Les bien-aimés",
      "address": "2 Rue de la Paix, 44000 Nantes, France"
    },
    {
      "latitude": 47.2347488,
      "longitude": 6.031991999999946,
      "name": "Ze Music All",
      "address": "18 Rue Rivotte, 25000 Besançon, France"
    },
    {
      "latitude": 43.293256,
      "longitude": 5.381930000000011,
      "name": "Les Délices de Plume",
      "address": "1 Rue Fongate, 13001 Marseille, France"
    },
    {
      "latitude": 50.633412,
      "longitude": 3.0681260000000066,
      "name": "Coffee Makers",
      "address": "151 Rue de Paris, 59800 Lille, France"
    },
    {
      "latitude": 43.614967,
      "longitude": 3.8769479999999703,
      "name": "Café Noisette",
      "address": "21 Boulevard Pasteur, 34090 Montpellier, France"
    },
    {
      "latitude": 45.890158,
      "longitude": -72.54517499999997,
      "name": "Rose Café",
      "address": "210 Boulevard Lemire Ouest, Drummondville, QC J2B 8A9, Canada"
    },
    {
      "latitude": 49.1842329,
      "longitude": -0.36439930000005916,
      "name": "Pancake Night Fever",
      "address": "23 Rue Gemare, 14000 Caen, France"
    },
    {
      "latitude": 48.8532748,
      "longitude": 2.337111400000026,
      "name": "Grom",
      "address": "81 Rue de Seine, 75006 Paris, France"
    },
    {
      "latitude": 48.5815328,
      "longitude": 7.752961599999935,
      "name": "Bistrot et Chocolat",
      "address": "8 Rue de la Râpe, 67000 Strasbourg"
    },
    {
      "latitude": 48.869494,
      "longitude": 2.3286889999999403,
      "name": "Naked Food",
      "address": "22 Rue des Capucines, 75001 Paris, France"
    },
    {
      "latitude": 48.843323,
      "longitude": 2.349545,
      "name": "Vegan Folie's",
      "address": "53-55 Rue Mouffetard, 75005 Paris, France"
    },
    {
      "latitude": 48.110533,
      "longitude": -1.678538,
      "name": "Le Haricot Rouge",
      "address": "10 Rue Baudrairie, 35000 Rennes, France"
    },
    {
      "latitude": 47.6568428,
      "longitude": -2.7574101000000155,
      "name": "L'Entrechoc",
      "address": "15 Place Valencia, 56000 Vannes, France"
    },
    {
      "latitude": 48.835125,
      "longitude": 2.326726000000008,
      "name": "Chocolatitudes",
      "address": "57 Rue Daguerre, 75014 Paris, France"
    },
    {
      "latitude": 48.8619467,
      "longitude": 2.3799421999999595,
      "name": "Bob's Cold Press",
      "address": "10 Passage Rochebrune, 75011 Paris, France"
    },
    {
      "latitude": 47.215567,
      "longitude": -1.558334000000059,
      "name": "Sugar Blue Café",
      "address": "4 Rue de l'Arche Sèche, 44000 Nantes, France"
    },
    {
      "latitude": 45.1916549,
      "longitude": 5.730968100000041,
      "name": "La Causerie Pause Bio",
      "address": "3 Rue Jean-François Haché, 38000 Grenoble, France"
    },
    {
      "latitude": 48.582908,
      "longitude": 7.753349000000071,
      "name": "Gagao",
      "address": "20 Rue des Frères, 67000 Strasbourg"
    },
    {
      "latitude": 48.865666000000004,
      "longitude": 2.3401830000000245,
      "name": "Juice it",
      "address": "8 Rue de la Vrillière, 75001 Paris, France"
    },
    {
      "latitude": 47.319947,
      "longitude": 5.0400789999999915,
      "name": "La Causerie des Mondes",
      "address": "16 Rue Vauban, 21000 Dijon"
    },
    {
      "latitude": 45.6496192,
      "longitude": 0.15618449999999484,
      "name": "Phenix",
      "address": "24 Rue de la Cloche Verte, 16000 Angoulême, France"
    },
    {
      "latitude": 51.54045500000001,
      "longitude": -0.14375300000006064,
      "name": "Cookies and Scream",
      "address": "The Market Hall, Camden Lock Place, London NW1 8AF, Royaume-Uni"
    },
    {
      "latitude": 43.6072981,
      "longitude": 1.4396692000000257,
      "name": "The Coffee Pot",
      "address": "41 Rue des Lois, 31000 Toulouse, France"
    },
    {
      "latitude": 48.866107,
      "longitude": 2.344116999999983,
      "name": "Matamata Coffee Bar",
      "address": "58 Rue d'Argout, 75002 Paris, France"
    },
    {
      "latitude": 43.6022056,
      "longitude": 1.4507665999999517,
      "name": "Café Den Coffeeshop",
      "address": "Centre Commercial Saint Georges, 51 bis, rue du Rempart St Etienne, 31000 Toulouse"
    },
    {
      "latitude": 43.6063534,
      "longitude": 1.4424552000000403,
      "name": "Colombus Café",
      "address": "10 Rue du Taur, 31000 Toulouse, France"
    },
    {
      "latitude": 47.214483,
      "longitude": -1.5555709999999863,
      "name": "92,5° Coffee Shop",
      "address": "Cours des 50 Otages, 44000 Nantes, France"
    },
    {
      "latitude": 48.833924,
      "longitude": 2.243644,
      "name": "Panasia",
      "address": "130 Avenue Victor Hugo, 92100 Boulogne-Billancourt, France"
    },
    {
      "latitude": 48.875407,
      "longitude": 2.327146999999968,
      "name": "Zumo — Passage du Havre",
      "address": "10 Passage du Havre, 75009 Paris, France"
    },
    {
      "latitude": 48.828526,
      "longitude": 2.3555939999999964,
      "name": "Zumo — Italie",
      "address": "30 Avenue d'Italie, 75013 Paris, France"
    },
    {
      "latitude": 48.872034,
      "longitude": 2.3605669999999463,
      "name": "Bob's Juice Bar",
      "address": "15 Rue Lucien Sampaix, 75010 Paris, France"
    },
    {
      "latitude": 48.862592,
      "longitude": 2.3512000000000626,
      "name": "AntiCafé — Beaubourg",
      "address": "79 Rue Quincampoix, 75003 Paris, France"
    },
    {
      "latitude": 48.8621494,
      "longitude": 2.351975799999991,
      "name": "Bubble Tea Cup",
      "address": "164 Rue Saint-Martin, 75003 Paris, France"
    },
    {
      "latitude": 48.859837,
      "longitude": 2.3498260000000073,
      "name": "Bubbolitas",
      "address": "17 Rue Quincampoix, 75004 Paris, France"
    },
    {
      "latitude": 49.253786,
      "longitude": 4.027135000000044,
      "name": "Le Maharajah",
      "address": "13 Rue de Thillois, 51100 Reims, France"
    },
    {
      "latitude": 48.8828589,
      "longitude": 2.338175699999965,
      "name": "Ayutthaya",
      "address": "5 Rue Houdon, 75018 Paris, France"
    },
    {
      "latitude": 43.298504,
      "longitude": 5.382814999999937,
      "name": "Green Bear Coffee",
      "address": "17 Rue Glandeves, 13001 Marseille"
    },
    {
      "latitude": 48.582102,
      "longitude": 7.743210999999975,
      "name": "Made In France",
      "address": "26 Rue des Drapiers, 67000 Strasbourg, France"
    },
    {
      "latitude": 48.872728,
      "longitude": 2.3095479999999498,
      "name": "Mitsou",
      "address": "3 Rue du Commandant Rivière, 75008 Paris, France"
    },
    {
      "latitude": 48.825602,
      "longitude": 2.3614499999999907,
      "name": "Lao Lane Xang",
      "address": "102 Avenue d'Ivry, 75013 Paris, France"
    },
    {
      "latitude": 48.881724,
      "longitude": 2.364372000000003,
      "name": "le 42",
      "address": "42 Rue Louis Blanc, 75010 Paris"
    },
    {
      "latitude": 43.602995,
      "longitude": 1.4538009999999986,
      "name": "La Belle Verte",
      "address": "50 Rue d'Aubuisson, 31000 Toulouse, France"
    },
    {
      "latitude": 50.642755,
      "longitude": 5.573701000000028,
      "name": "Terre Mère",
      "address": "Rue de la Régence 21, 4000 Liège, Belgique"
    },
    {
      "latitude": 48.583819,
      "longitude": 7.742787000000022,
      "name": "La Pause Quinoa",
      "address": "33 Rue du Jeu des Enfants, 67000 Strasbourg"
    },
    {
      "latitude": 43.701656,
      "longitude": 7.269195999999966,
      "name": "Speakeasy",
      "address": "7 Rue Lamartine, 06000 Nice"
    },
    {
      "latitude": 51.037004,
      "longitude": 3.7121160000000373,
      "name": "Lekker Gec",
      "address": "Kon. Maria Hendrikaplein 6, 9000 Gent, Belgique"
    },
    {
      "latitude": 51.053256,
      "longitude": 3.7303739999999834,
      "name": "Komkommertijd",
      "address": "Reep 14, 9000 Gent, Belgique"
    },
    {
      "latitude": 47.23697689999999,
      "longitude": 6.028618800000004,
      "name": "Basilic Instant",
      "address": "93 Rue des Granges, 25000 Besançon"
    },
    {
      "latitude": 42.696600000000004,
      "longitude": 2.8835730000000694,
      "name": "Saveurs Nature",
      "address": "7 Rue Paul Massot, 66000 Perpignan"
    },
    {
      "latitude": 43.6019472,
      "longitude": 1.4438887000000022,
      "name": "La faim des haricots",
      "address": "3 Rue du Puits Vert, 31000 Toulouse, France"
    },
    {
      "latitude": 45.7714076,
      "longitude": 4.83532660000003,
      "name": "Toutes Les Couleurs",
      "address": "26 Rue Imbert Colomes, 69001 Lyon"
    },
    {
      "latitude": 48.876062000000005,
      "longitude": 2.348478,
      "name": "Can Tin(e)",
      "address": "66 Rue du Faubourg Poissonnière, 75010 Paris, France"
    },
    {
      "latitude": 48.90524759999992,
      "longitude": 2.34424742883607,
      "name": "Red Gold and Green",
      "address": "43 Rue Paul Bert, 93400 Saint-Ouen"
    },
    {
      "latitude": 48.510208999999946,
      "longitude": -1.2526921711639716,
      "name": "Millefeuilles",
      "address": "Leteurrie, 35420 Saint-Georges-de-Reintembault"
    },
    {
      "latitude": 48.87518699999983,
      "longitude": 2.3329227288360244,
      "name": "My Bo Bun",
      "address": "73 Rue de la Victoire, 75009 Paris, France"
    },
    {
      "latitude": 44.82898269999984,
      "longitude": -0.5743156711639585,
      "name": "Rise Up 'N' Shine",
      "address": "49 Cours de l'Argonne, 33000 Bordeaux, France"
    },
    {
      "latitude": 46.188995599999934,
      "longitude": 6.157282728836095,
      "name": "Helveg Café",
      "address": "Avenue de Miremont 31, 1206 Genève, Suisse"
    },
    {
      "latitude": 45.768510399999904,
      "longitude": 4.831995328836001,
      "name": "Le Roi Falafel",
      "address": "30 Rue Palais Grillet, 69002 Lyon"
    },
    {
      "latitude": 48.86640599999985,
      "longitude": 2.3381447288360278,
      "name": "Macéo",
      "address": "15 Rue des Petits Champs, 75002 Paris"
    },
    {
      "latitude": 45.75697799999996,
      "longitude": 4.850896728836005,
      "name": "Soline",
      "address": "89 Rue Paul Bert, 69003 Lyon"
    },
    {
      "latitude": 48.1108079999999,
      "longitude": -1.6769652711639083,
      "name": "Saint-Germain des Champs",
      "address": "12 Rue du Vau Saint-Germain, 35000 Rennes"
    },
    {
      "latitude": 47.31766399999986,
      "longitude": 5.034876728836025,
      "name": "Le Shanti",
      "address": "69 Rue Berbisey, 21000 Dijon"
    },
    {
      "latitude": 48.867543999999846,
      "longitude": 2.340889728836032,
      "name": "Liza",
      "address": "14 Rue de la Banque, 75002 Paris"
    },
    {
      "latitude": 48.86304999999991,
      "longitude": 2.351859728836075,
      "name": "Vert Midi - Quincampoix",
      "address": "9 Rue aux Ours, 75003 Paris"
    },
    {
      "latitude": 48.87019999999984,
      "longitude": 2.3421667288359913,
      "name": "Vert Midi - St Marc",
      "address": "1 Rue Saint-Marc, 75002 Paris"
    },
    {
      "latitude": 48.868745999999874,
      "longitude": 2.3536737288360428,
      "name": "An Com",
      "address": "14 Rue Blondel, 75002 Paris"
    },
    {
      "latitude": 48.86579699999988,
      "longitude": 2.34709672883605,
      "name": "Monthaï",
      "address": "84 Rue Montorgueil, 75002 Paris"
    },
    {
      "latitude": 48.877408999999794,
      "longitude": 2.351376728836044,
      "name": "Mussubï",
      "address": "89 Rue d'Hauteville, 75010 Paris"
    },
    {
      "latitude": 48.8661719999999,
      "longitude": 2.3722157288360677,
      "name": "Kawaii Café",
      "address": "20 Rue de Nemours, 75011 Paris"
    },
    {
      "latitude": 48.87304399999984,
      "longitude": 2.3002017288361003,
      "name": "Kok Ping",
      "address": "4 Rue Balzac, 75008 Paris"
    },
    {
      "latitude": 48.88976899999991,
      "longitude": 2.247600728836005,
      "name": "Pause",
      "address": "34 Place des Reflets, 92400 Courbevoie"
    },
    {
      "latitude": 48.8374349999999,
      "longitude": 2.3522937288360026,
      "name": "Ase Theodros",
      "address": "7 Rue de la Collégiale, 75005 Paris"
    },
    {
      "latitude": 48.83323799999987,
      "longitude": 2.3156177288360595,
      "name": "Aquarius",
      "address": "40 Rue de Gergovie, 75014 Paris, France"
    },
    {
      "latitude": 48.84178899999995,
      "longitude": 2.328055728836034,
      "name": "Dietetic shop",
      "address": "11 Rue Delambre, 75014 Paris"
    },
    {
      "latitude": 49.182462999999835,
      "longitude": -0.3648502711639594,
      "name": "Greedy Guts",
      "address": "15 Rue de Bras, 14000 Caen"
    },
    {
      "latitude": 48.875246999999796,
      "longitude": 2.31908872883605,
      "name": "Graine",
      "address": "7 Place Saint-Augustin, 75008 Paris"
    },
    {
      "latitude": 50.64257999999995,
      "longitude": 3.0667367288360765,
      "name": "2 sous de table",
      "address": "56 Rue de Gand, 59000 Lille"
    },
    {
      "latitude": 45.94287299999993,
      "longitude": -0.5217412711639327,
      "name": "Carottes et Gingembre",
      "address": "36 Rue des Bancs, 17400 Saint-Jean-d'Angély"
    },
    {
      "latitude": 51.057739999999924,
      "longitude": 3.7209580674591503,
      "name": "Avalon",
      "address": "Geldmunt 32, 9000 Gent, Belgique"
    },
    {
      "latitude": 50.877116999999735,
      "longitude": 4.705118067459125,
      "name": "Loving Hut - Leuven",
      "address": "Tiensestraat 65, 3000 Leuven, Belgique"
    },
    {
      "latitude": 48.87034399999977,
      "longitude": 2.3103210674590855,
      "name": "Saï Bobun",
      "address": "9 Rue de Ponthieu, 75008 Paris"
    },
    {
      "latitude": 45.76752099999974,
      "longitude": 4.831455609786985,
      "name": "Yaafa",
      "address": "17 Rue d'Algérie, 69001 Lyon"
    },
    {
      "latitude": 49.25717989999998,
      "longitude": 4.039198409786991,
      "name": "Le Vert en Couleur",
      "address": "8, place Aristide Briand, Reims"
    },
    {
      "latitude": 48.890659399999834,
      "longitude": 2.3543215097870416,
      "name": "Toutofu",
      "address": "25 Rue Ordener, 75018 Paris"
    },
    {
      "latitude": 49.25629279999999,
      "longitude": 4.025790709786976,
      "name": "Food Avenue",
      "address": "77 Place Drouet d'Erlon, 51100 Reims"
    },
    {
      "latitude": 48.89024909999985,
      "longitude": 2.3418518097869314,
      "name": "In bocca al lupo",
      "address": "14 Rue Francoeur, 75018 Paris"
    },
    {
      "latitude": 48.85614599999997,
      "longitude": 2.358976609786964,
      "name": "L'Escale du Liban",
      "address": "1 Rue Ferdinand Duval, 75004 Paris"
    },
    {
      "latitude": 43.77000399999971,
      "longitude": 7.493431609786967,
      "name": "Loving Hut — Menton",
      "address": "649 Promenade du Soleil, 06500 Menton, France"
    },
    {
      "latitude": 48.867837399999694,
      "longitude": 2.3543099097869344,
      "name": "Elgi — St Martin",
      "address": "327 Rue Saint-Martin, 75003 Paris, France"
    },
    {
      "latitude": 48.8623743,
      "longitude": 2.3781413000000384,
      "name": "Elgi — St Ambroise",
      "address": "18 Rue Saint-Ambroise, 75011 Paris, France"
    },
    {
      "latitude": 48.87509599999963,
      "longitude": 2.3067276097870035,
      "name": "Elgi — Haussmann",
      "address": "182 Boulevard Haussmann, 75008 Paris, France"
    },
    {
      "latitude": 48.86913199999964,
      "longitude": 2.3632546097869636,
      "name": "Elgi — République",
      "address": "4 Rue Beaurepaire, 75010 Paris, France"
    },
    {
      "latitude": 48.86567199999974,
      "longitude": 2.3446376097870143,
      "name": "Elgi — Montorgueil",
      "address": "64 Rue Montmartre, 75002 Paris, France"
    },
    {
      "latitude": 48.87409299999963,
      "longitude": 2.3373066097869923,
      "name": "Elgi — La Fayette",
      "address": "26 Rue la Fayette, 75009 Paris, France"
    },
    {
      "latitude": 48.8704851,
      "longitude": 2.3414877999999817,
      "name": "Elgi — Bourse",
      "address": "10 rue saint-marc, 75002 Paris, France"
    },
    {
      "latitude": 48.848684,
      "longitude": 2.3534576097870286,
      "name": "Le Puits de Légumes",
      "address": "18 Rue du Cardinal Lemoine, 75005 Paris, France"
    },
    {
      "latitude": 48.84697800000002,
      "longitude": 2.351788609787036,
      "name": "Comptoir Méditerranée",
      "address": "42 Rue du Cardinal Lemoine, 75005 Paris, France"
    },
    {
      "latitude": 48.857205999999906,
      "longitude": 2.359256609787053,
      "name": "King Falafel Palace",
      "address": "26 Rue des Rosiers, 75004 Paris"
    },
    {
      "latitude": 50.63086999999968,
      "longitude": 3.0555716097869663,
      "name": "Pica Tapas",
      "address": "117 Rue Solférino, 59000 Lille"
    },
    {
      "latitude": 48.87425429999963,
      "longitude": 2.383211009786919,
      "name": "Hobbes",
      "address": "31 Avenue Simon Bolivar, 75019 Paris"
    },
    {
      "latitude": 47.20646399999996,
      "longitude": -1.5547213902129897,
      "name": "Le bistrot de l'île",
      "address": "17 Rue la Tour d'Auvergne, 44200 Nantes, France"
    },
    {
      "latitude": 50.636409999999806,
      "longitude": 3.0589636097870425,
      "name": "Pulp Kitchen",
      "address": "106 Rue de l'Hôpital Militaire, 59000 Lille"
    },
    {
      "latitude": 48.88448199999969,
      "longitude": 2.3233096097869748,
      "name": "Joy In Food",
      "address": "2 Rue Truffaut, 75017 Paris, France"
    },
    {
      "latitude": 48.88987299999984,
      "longitude": 2.339883609786966,
      "name": "Hope café",
      "address": "64 Rue Lamarck, 75018 Paris, France"
    },
    {
      "latitude": 48.87109199999962,
      "longitude": 2.358278609787021,
      "name": "Allen's Market",
      "address": "33 Rue du Château d'Eau, 75010 Paris, France"
    },
    {
      "latitude": 48.863618999999794,
      "longitude": 2.3488576097870464,
      "name": "Joe Allen",
      "address": "30 Rue Pierre Lescot, 75001 Paris"
    },
    {
      "latitude": 48.84884800000001,
      "longitude": 2.3254146097870034,
      "name": "Tugalik",
      "address": "29 Rue Saint-Placide, 75006 Paris"
    },
    {
      "latitude": 48.85017800000001,
      "longitude": 2.377919609787,
      "name": "La Gazzetta",
      "address": "29 Rue de Cotte, 75012 Paris, France"
    },
    {
      "latitude": 48.87992299999961,
      "longitude": 2.3573526097869717,
      "name": "Saravanaa Bhavan",
      "address": "170 Rue du Faubourg Saint-Denis, 75010 Paris, France"
    },
    {
      "latitude": 48.85400800000001,
      "longitude": 2.3357006097869544,
      "name": "Guen Mai",
      "address": "6 Rue Cardinale, 75006 Paris"
    },
    {
      "latitude": 48.851907000000026,
      "longitude": 2.348309609786952,
      "name": "Le Grenier de Notre-Dame",
      "address": "18 Rue de la Bûcherie, 75005 Paris, France"
    },
    {
      "latitude": 48.844019,
      "longitude": 2.317425609787051,
      "name": "Ma grand-mère m'a dit",
      "address": "1 Rue Falguière, 75015 Paris"
    },
    {
      "latitude": 48.86784399999971,
      "longitude": 2.335283609786984,
      "name": "Bioburger",
      "address": "46 Passage Choiseul, 75002 Paris"
    },
    {
      "latitude": 48.8607699999999,
      "longitude": 2.3454346097869347,
      "name": "Le Bio d'Adam et Ève",
      "address": "41 Rue Saint Honoré, 75001 Paris"
    },
    {
      "latitude": 48.860530999999874,
      "longitude": 2.345315609787008,
      "name": "Saveurs Végét'Halles",
      "address": "41 Rue des Bourdonnais, 75001 Paris"
    },
    {
      "latitude": 48.87712799999962,
      "longitude": 2.338510609787022,
      "name": "Pousse-Pousse",
      "address": "5 Rue Notre Dame de Lorette, 75009 Paris"
    },
    {
      "latitude": 48.872114999999596,
      "longitude": 2.365079609787017,
      "name": "Le Comptoir Général",
      "address": "80 Quai de Jemmapes, 75010 Paris"
    },
    {
      "latitude": 48.823432999999696,
      "longitude": 2.368391609786954,
      "name": "Green Garden",
      "address": "20 Rue nationale 75013 Paris"
    },
    {
      "latitude": 48.86643999999973,
      "longitude": 2.331540609786998,
      "name": "Le Pain Quotidien — Paris St Honoré",
      "address": "18 Place du Marché Saint-Honoré, 75001 Paris"
    },
    {
      "latitude": 48.86646799999971,
      "longitude": 2.3470536097870536,
      "name": "Le Pain Quotidien — Paris Montorgueil",
      "address": "2 Rue des Petits Carreaux, 75002 Paris"
    },
    {
      "latitude": 48.85378200000001,
      "longitude": 2.3241876097870318,
      "name": "Le Pain Quotidien — Paris Varenne",
      "address": "25 Rue de Varenne, 75007 Paris"
    },
    {
      "latitude": 48.87761679999955,
      "longitude": 2.3487292097870522,
      "name": "42 Degrés",
      "address": "109 Rue du Faubourg Poissonnière, 75009 Paris"
    },
    {
      "latitude": 48.8750249999996,
      "longitude": 2.3480376097869566,
      "name": "Café Pinson — Poissonière",
      "address": "58 Rue du Faubourg Poissonnière, 75010 Paris"
    },
    {
      "latitude": 48.86094899999985,
      "longitude": 2.3542486097869646,
      "name": "Le Potager du Marais",
      "address": "24 Rue Rambuteau, 75004 Paris, France"
    },
    {
      "latitude": 48.862455999999824,
      "longitude": 2.3619406097869846,
      "name": "M.O.B. Marais",
      "address": "30 Rue Charlot, 75003 Paris, France"
    },
    {
      "latitude": 48.87305599999968,
      "longitude": 2.362993609787054,
      "name": "Sol Semilla",
      "address": "23 Rue des Vinaigriers, 75010 Paris, France"
    },
    {
      "latitude": 48.868088999999685,
      "longitude": 2.369967609786954,
      "name": "Soya",
      "address": "20 Rue de la Pierre Levée, 75011 Paris"
    },
    {
      "latitude": 48.8886441,
      "longitude": 2.320416399999999,
      "name": "My Kitch'n",
      "address": "82 rue Lemercier, 75017, Paris"
    },
    {
      "latitude": 48.852929,
      "longitude": 2.3671846097870457,
      "name": "Café Ginger",
      "address": "9 Rue Jacques Cœur, 75004 Paris, France"
    },
    {
      "latitude": 48.85984299999988,
      "longitude": 2.3674696097870083,
      "name": "Loving Hut — Paris",
      "address": "92 Boulevard Beaumarchais, 75011 Paris 11e arrondissement"
    },
    {
      "latitude": 48.881193999999695,
      "longitude": 2.3136676097869895,
      "name": "Mum Dim Sum",
      "address": "14 Boulevard de Courcelles, 75017 Paris"
    },
    {
      "latitude": 48.872043999999626,
      "longitude": 2.3402246097870147,
      "name": "Chipotle Mexican Grill — Montmartre",
      "address": "18-20 Boulevard Montmartre, 75009 Paris"
    },
    {
      "latitude": 48.86377399999972,
      "longitude": 2.3628876097869806,
      "name": "Café Pinson — Forez",
      "address": "6 Rue du Forez, 75003 Paris, France"
    },
    {
      "latitude": 48.864468999999794,
      "longitude": 2.3543756097869846,
      "name": "Bob's Kitchen",
      "address": "74 Rue des Gravilliers, 75003 Paris"
    },
    {
      "latitude": 48.87023199999968,
      "longitude": 2.368820609787008,
      "name": "Tien Hiang",
      "address": "14 Rue Bichat, 75010 Paris"
    },
    {
      "latitude": 48.84894500000004,
      "longitude": 2.3680916097870295,
      "name": "Gentle Gourmet Café",
      "address": "24 Boulevard de la Bastille, 75012 Paris, France"
    },
    {
      "latitude": 48.855493,
      "longitude": 2.374003609786996,
      "name": "Blue Elephant",
      "address": "45 Rue de la Roquette, 75011 Paris, France"
    },
    {
      "latitude": 48.85745099999998,
      "longitude": 2.358888609786959,
      "name": "L'as du Fallafel",
      "address": "32-34 Rue des Rosiers, 75004 Paris, France"
    },
    {
      "latitude": 48.876993999999655,
      "longitude": 2.3478516097869715,
      "name": "VG",
      "address": "85 Rue la Fayette, 75009 Paris, France"
    },
    {
      "latitude": 48.861315999999846,
      "longitude": 2.35804460978693,
      "name": "Hank",
      "address": "55 Rue des Archives, 75003 Paris"
    },
    {
      "latitude": 48.853276000000044,
      "longitude": 2.3414246097870546,
      "name": "Chez Le Libanais",
      "address": "35 Rue Saint-André des Arts, 75006 Paris, France"
    },
    {
      "latitude": 48.8618569999998,
      "longitude": 2.3729116097870246,
      "name": "East Side Burgers",
      "address": "60 Boulevard Voltaire, 75011 Paris"
    },
    {
      "latitude": 48.84072199999989,
      "longitude": 2.3695716097870445,
      "name": "M.O.B. Austerlitz",
      "address": "34 Quai d'Austerlitz, 75013 Paris, France"
    },
    {
      "latitude": 48.85795000000001,
      "longitude": 2.3461756097869966,
      "name": "Dernier Bar avant la Fin du Monde",
      "address": "19 Avenue Victoria, 75001 Paris, France"
    },
    {
      "latitude": 48.86690399999968,
      "longitude": 2.346972609786917,
      "name": "Bollynan",
      "address": "13 Rue des Petits Carreaux, 75002 Paris, France"
    },
    {
      "latitude": 48.873318999999675,
      "longitude": 2.344463609786999,
      "name": "Vegebowl",
      "address": "3 Rue de la Boule Rouge, 75009 Paris, France"
    },
    {
      "latitude": 48.85785699999996,
      "longitude": 2.3546596097869497,
      "name": "Le Pain Quotidien — Paris Archives",
      "address": "18 Rue des Archives, 75004 Paris, France"
    },
    {
      "latitude": 48.852953000000014,
      "longitude": 2.3453196097869977,
      "name": "Maoz",
      "address": "8 Rue Xavier Privas Paris"
    },
    {
      "latitude": 48.85663,
      "longitude": 2.3581229999999778,
      "name": "Don's",
      "address": "5 Rue des Ecouffes, 75004 Paris, France"
    },
    {
      "latitude": 49.497828,
      "longitude": 0.11167999999997846,
      "name": "Épices et tout",
      "address": "92 Rue Docteur Vigne, 76600 Le Havre, France"
    },
    {
      "latitude": 50.359201,
      "longitude": 3.5221950000000106,
      "name": "MANKOUFU",
      "address": "5 Avenue Georges Clemenceau, 59300 Valenciennes, France"
    },
    {
      "latitude": 48.85815,
      "longitude": 2.365366999999992,
      "name": "Mai Thai",
      "address": "24B Rue Saint-Gilles, 75003 Paris, France"
    },
    {
      "latitude": 47.217724,
      "longitude": -1.5557410000000118,
      "name": "La Cantine de Livresse",
      "address": "9 Rue de l'Hôtel de ville, 44000 Nantes, France"
    },
    {
      "latitude": 48.897628,
      "longitude": 2.3440729999999803,
      "name": "La REcyclerie",
      "address": "83 Boulevard Ornano, 75018 Paris, France"
    },
    {
      "latitude": 48.866,
      "longitude": 2.378559999999993,
      "name": "L'Esprit Tchaï",
      "address": "115 Rue Oberkampf, 75011 Paris, France"
    },
    {
      "latitude": 48.109253,
      "longitude": -1.6829290000000583,
      "name": "Apple Pie",
      "address": "31 Rue de la Chalotais, 35000 Rennes, France"
    },
    {
      "latitude": 44.8322064,
      "longitude": -0.5668818000000329,
      "name": "La Soupe au Caillou",
      "address": "6 Place du Maucaillou, 33800 Bordeaux, France"
    },
    {
      "latitude": 50.639954,
      "longitude": 5.581915999999978,
      "name": "Le Mékong",
      "address": "Rue Surlet 43, 4020 Liège, Belgique"
    },
    {
      "latitude": 48.844283,
      "longitude": 2.3304450000000543,
      "name": "Le Lucernaire",
      "address": "53 Rue Notre Dame des Champs, 75006 Paris, France"
    },
    {
      "latitude": 47.9013499,
      "longitude": 1.9052822999999537,
      "name": "Un piano dans la théière",
      "address": "31 Rue Sainte-Catherine, 45000 Orléans, France"
    },
    {
      "latitude": 43.088433,
      "longitude": 1.875006999999982,
      "name": "La Cardamone",
      "address": "38 Place Maréchal Leclerc, 09500 Mirepoix, France"
    },
    {
      "latitude": 49.62794,
      "longitude": 6.129930999999942,
      "name": "Gourmandises Permises",
      "address": "15 Place François-Joseph Dargent, 1413 Luxembourg, Luxembourg"
    },
    {
      "latitude": 48.870195,
      "longitude": 2.3688589999999294,
      "name": "Le Bichat",
      "address": "11 Rue Bichat, 75010 Paris, France"
    },
    {
      "latitude": 46.5484965,
      "longitude": 2.9805690000000595,
      "name": "Château d'Ygrande",
      "address": "Le Mont, 03160 Ygrande"
    },
    {
      "latitude": 43.714883,
      "longitude": -1.0569120000000112,
      "name": "Panier Amande",
      "address": "25 Avenue du Sablar, 40100 Dax, France"
    },
    {
      "latitude": 48.581268,
      "longitude": 7.757109000000013,
      "name": "Le Tarbouche",
      "address": "22 rue de la Krutenau Strasbourg"
    },
    {
      "latitude": 48.87917800000001,
      "longitude": 2.3432339999999385,
      "name": "Wally Le Saharien",
      "address": "36 Rue Rodier, 75009 Paris, France"
    },
    {
      "latitude": 53.548499,
      "longitude": 9.96219700000006,
      "name": "Veganimbiss Befried",
      "address": "Friedrichstraße 3, 20359 Hamburg, Allemagne"
    },
    {
      "latitude": 46.8125145,
      "longitude": 1.6910550000000057,
      "name": "Nok Noy",
      "address": "5 Place Robert Monestier, 36000 Châteauroux, France"
    },
    {
      "latitude": 44.857322,
      "longitude": -0.560483999999974,
      "name": "Rest'O",
      "address": "16 Quai de Bacalan, 33300 Bordeaux, France"
    },
    {
      "latitude": 50.65225849999999,
      "longitude": 2.986229099999946,
      "name": "Salad & Co — Lille",
      "address": "14 ter rue du Château d'Isenghien 59160 Lomme"
    },
    {
      "latitude": 50.615451,
      "longitude": 3.1251970000000715,
      "name": "Salad & Co — Villeneuve-d'Ascq",
      "address": "Salad&Co - Restaurant Villeneuve d'Ascq Centre commercial Heron Parc Avenue de l'Avenir 59650 Villeneuve d'Ascq"
    },
    {
      "latitude": 48.583839000000005,
      "longitude": 7.745721000000003,
      "name": "Vert Ici",
      "address": "31 Place Kléber, 67000 Strasbourg"
    },
    {
      "latitude": 52.356275,
      "longitude": 4.910001999999963,
      "name": "Restaurant Beter & Leuk",
      "address": "1e Oosterparkstraat 73/91 1091 GW Amsterdam"
    },
    {
      "latitude": 48.867786,
      "longitude": 2.336279999999988,
      "name": "Vietnam in Paris",
      "address": "52 Rue Sainte-Anne, 75002 Paris, France"
    },
    {
      "latitude": 48.114108,
      "longitude": -1.6795439999999644,
      "name": "Al-saj",
      "address": "5 Rue Motte Fablet, 35000 Rennes, France"
    },
    {
      "latitude": 45.749158300000005,
      "longitude": 4.838920499999973,
      "name": "BAP",
      "address": "33 Rue Chevreul, 69007 Lyon, France"
    },
    {
      "latitude": 48.5835562,
      "longitude": 7.754569599999968,
      "name": "Hot Doggy Dog",
      "address": "3 Rue de l'Arc en Ciel, 67000 Strasbourg, France"
    },
    {
      "latitude": 50.6296016,
      "longitude": 3.061799800000017,
      "name": "Bis 2 Fly",
      "address": "19 Rue Nicolas Leblanc, 59000 Lille, France"
    },
    {
      "latitude": 45.766515,
      "longitude": 4.854869000000008,
      "name": "Messob",
      "address": "85 Rue Masséna, 69006 Lyon, France"
    },
    {
      "latitude": 43.7907595,
      "longitude": 7.611582900000031,
      "name": "I Sapori Della Tavola",
      "address": "Via Camillo Benso Cavour, 58, 18039 Ventimiglia IM, Italie"
    },
    {
      "latitude": 48.857165,
      "longitude": 2.358965000000012,
      "name": "Miznon",
      "address": "22 Rue des Ecouffes, 75004 Paris, France"
    },
    {
      "latitude": 43.773658,
      "longitude": 11.25848700000006,
      "name": "Panino Vegano",
      "address": "Via Maurizio Bufalini, 19, 50122 Firenze, Italie"
    },
    {
      "latitude": 49.263575,
      "longitude": -123.100747,
      "name": "The Wallflower Modern Diner",
      "address": "2420 Main Street, Vancouver, BC V5T 3H9, Canada"
    },
    {
      "latitude": 49.2644662,
      "longitude": -123.10101810000003,
      "name": "Foundation Eatery",
      "address": "2301 Main Street, Vancouver, BC V5T 1M6, Canada"
    },
    {
      "latitude": 48.1153,
      "longitude": -1.6789099999999735,
      "name": "Le Coucou Rennais",
      "address": "20 Rue d'Antrain, 35000 Rennes, France"
    },
    {
      "latitude": 48.11200849999999,
      "longitude": -1.675451199999998,
      "name": "India",
      "address": "41 Rue Saint-Georges, 35000 Rennes, France"
    },
    {
      "latitude": 52.528729,
      "longitude": 13.397016000000008,
      "name": "Kopps",
      "address": "Linienstraße 94, 10115 Berlin, Allemagne"
    },
    {
      "latitude": 52.507663,
      "longitude": 13.45446400000003,
      "name": "Emma Pea",
      "address": "Revaler Straße 99, 10245 Berlin, Allemagne"
    },
    {
      "latitude": 52.534608,
      "longitude": 13.399108999999953,
      "name": "The Jivamukti Canteen",
      "address": "Brunnenstraße 29, 10119 Berlin, Allemagne"
    },
    {
      "latitude": 52.53048,
      "longitude": 13.402479999999969,
      "name": "Daluma",
      "address": "Weinbergsweg 3, 10119 Berlin, Allemagne"
    },
    {
      "latitude": 52.506726,
      "longitude": 13.46877100000006,
      "name": "Vöner",
      "address": "Boxhagener Straße 56, 10245 Berlin, Allemagne"
    },
    {
      "latitude": 46.58078700000001,
      "longitude": 0.34106499999995776,
      "name": "Wasabi",
      "address": "11 Rue du Chaudron d'Or, 86000 Poitiers, France"
    },
    {
      "latitude": 48.861741,
      "longitude": 2.351496999999995,
      "name": "Oh' Bio",
      "address": "58 Rue Rambuteau, 75004 Paris, France"
    },
    {
      "latitude": 43.7818456,
      "longitude": 11.260254300000042,
      "name": "Dolce Vita Vegan",
      "address": "Via San Gallo, 92, 50129 Firenze, Italie"
    },
    {
      "latitude": 44.8388019,
      "longitude": -0.5790173999999979,
      "name": "Le Pain Quotidien — Bordeaux",
      "address": "64 Rue des Remparts, 33000 Bordeaux, France"
    },
    {
      "latitude": 48.852892,
      "longitude": 2.375100599999996,
      "name": "Le Pain Quotidien — Paris Charonne",
      "address": "24 Rue de Charonne, 75011 Paris, France"
    },
    {
      "latitude": 45.186912,
      "longitude": 5.71836200000007,
      "name": "Bombay",
      "address": "60 Cours Jean Jaurès, 38000 Grenoble"
    },
    {
      "latitude": 49.602932,
      "longitude": 6.134702000000061,
      "name": "Chez Julie",
      "address": "17 Rue de Bonnevoie, 1260 Luxembourg, Luxembourg"
    },
    {
      "latitude": 44.752849,
      "longitude": 5.371149999999943,
      "name": "Tchai Walla",
      "address": "8 Rue Joseph Reynaud, 26150 Die, France"
    },
    {
      "latitude": 48.861835,
      "longitude": 2.380388000000039,
      "name": "Balls",
      "address": "47 Rue Saint-Maur, 75011 Paris, France"
    },
    {
      "latitude": 43.926654,
      "longitude": 2.1468170000000555,
      "name": "Le Tournesol",
      "address": "11 Rue de l'Ort en Salvy, 81000 Albi, France"
    },
    {
      "latitude": 47.214882,
      "longitude": -1.537924999999973,
      "name": "Little Wokyo",
      "address": "1 Rue Marcel Paul, 44000 Nantes, France"
    },
    {
      "latitude": 45.188046,
      "longitude": 5.716985000000023,
      "name": "Le Phenicien",
      "address": "51 Cours Berriat, 38000 Grenoble, France"
    },
    {
      "latitude": 45.757649,
      "longitude": 4.840943000000038,
      "name": "Mendo",
      "address": "26 Quai Victor Augagneur, 69003 Lyon, France"
    },
    {
      "latitude": 46.58642649999999,
      "longitude": 0.3381428999999798,
      "name": "La nouvelle cantine du plan B",
      "address": "32 Boulevard du Grand Cerf, 86000 Poitiers, France"
    },
    {
      "latitude": 49.443202,
      "longitude": 1.086561999999958,
      "name": "Rest'O'Rock",
      "address": "15 Rue Thomas Corneille, 76000 Rouen"
    },
    {
      "latitude": 45.7652276,
      "longitude": 4.895665600000029,
      "name": "Caravanserail Café",
      "address": "150 Rue du 4 Août 1789, 69100 Villeurbanne"
    },
    {
      "latitude": 42.697473,
      "longitude": 2.893295999999964,
      "name": "Bio Deux Anges",
      "address": "Rue des Augustins, 66000 Perpignan"
    },
    {
      "latitude": 47.687313,
      "longitude": -1.7355340000000299,
      "name": "Veg Mama",
      "address": "1 Place de la Mairie, 44290 Pierric, France"
    },
    {
      "latitude": 51.541344,
      "longitude": -0.14456799999993564,
      "name": "InSpiral Lounge",
      "address": "250 Camden High Street, London NW1 8QS, Royaume-Uni"
    },
    {
      "latitude": 51.51687,
      "longitude": -0.20033699999999044,
      "name": "Nama",
      "address": "110 Talbot Road, London W11 1JR, Royaume-Uni"
    },
    {
      "latitude": 51.52629,
      "longitude": -0.10815700000000561,
      "name": "Hummus Bros — Exmouth Market",
      "address": "62 Exmouth Market, London EC1R 4QE, Royaume-Uni"
    },
    {
      "latitude": 51.514315,
      "longitude": -0.09514500000000226,
      "name": "Hummus Bros — Cheapside",
      "address": "128 Cheapside, London EC2V 6BT, Royaume-Uni"
    },
    {
      "latitude": 51.519228000000005,
      "longitude": -0.12158399999998437,
      "name": "Hummus Bros — Southampton",
      "address": "37 Southampton Row, London WC1A 2QP, Royaume-Uni"
    },
    {
      "latitude": 51.513245,
      "longitude": -0.13374599999997372,
      "name": "Hummus Bros — Soho",
      "address": "88 Wardour Street, Soho, London W1F, Royaume-Uni"
    },
    {
      "latitude": 51.440104,
      "longitude": -0.10579299999994873,
      "name": "Greenz",
      "address": "5 Station Rise, West Norwood, London SE27 9BW, Royaume-Uni"
    },
    {
      "latitude": 51.529717,
      "longitude": -0.116092999999978,
      "name": "Itadaki Zen",
      "address": "139 King's Cross Road, Kings Cross, London WC1X 9BJ, Royaume-Uni"
    },
    {
      "latitude": 51.615167,
      "longitude": -0.27548699999999826,
      "name": "Loving Hut — Edgware",
      "address": "236 Station Road, Edgware, Greater London HA8 7AU, Royaume-Uni"
    },
    {
      "latitude": 51.536151,
      "longitude": -0.13915299999996478,
      "name": "Loving Hut — Plender Street",
      "address": "3 Plender Street, London NW1 0JT, Royaume-Uni"
    },
    {
      "latitude": 51.564966,
      "longitude": -0.13330199999995784,
      "name": "Loving Hut — Holloway Road",
      "address": "669 Holloway Road, London N19 5SE, Royaume-Uni"
    },
    {
      "latitude": 51.514161,
      "longitude": -0.12559299999998075,
      "name": "Food For Thought",
      "address": "31 Neal Street, London WC2H 9PR, Royaume-Uni"
    },
    {
      "latitude": 51.484641,
      "longitude": -0.12017200000002504,
      "name": "Bonnington Cafe",
      "address": "11 Vauxhall Grove, London SW8, Royaume-Uni"
    },
    {
      "latitude": 51.5130496,
      "longitude": -0.13633470000002035,
      "name": "Mildreds",
      "address": "45 Lexington St, London W1F 9AN, Royaume-Uni"
    },
    {
      "latitude": 51.486043,
      "longitude": -0.20304399999997713,
      "name": "222 Veggie Vegan",
      "address": "222 North End Road, London W14 9NU, Royaume-Uni"
    },
    {
      "latitude": 48.8593148,
      "longitude": 2.3488503999999466,
      "name": "Siam",
      "address": "12 boulevard sébastopol, 75004 Paris, France"
    },
    {
      "latitude": 47.318782,
      "longitude": 5.035757999999987,
      "name": "Les treize lucioles",
      "address": "13 Place Emile Zola, 21000 Dijon"
    },
    {
      "latitude": 50.2877239,
      "longitude": 2.7797696000000087,
      "name": "Mezzaluna",
      "address": "10 Rue Gambetta, 62000 Arras, France"
    },
    {
      "latitude": 45.5015541,
      "longitude": -73.57075409999999,
      "name": "Végo — McGill",
      "address": "1204 Avenue McGill College, Montréal, QC H3B 4J8, Canada"
    },
    {
      "latitude": 45.515529,
      "longitude": -73.564684,
      "name": "Végo — St-Denis",
      "address": "1720 Rue Saint-Denis, Montréal, QC H2X 3K4, Canada"
    },
    {
      "latitude": 45.521636,
      "longitude": -73.58509400000003,
      "name": "La Panthère Verte / The Green Panther",
      "address": "2153 Rue Mackay, Montréal, QC H3G 2J2, Canada"
    },
    {
      "latitude": 43.657861,
      "longitude": 7.188125000000014,
      "name": "Dame Nature",
      "address": "167 Promenade des Flots Bleus, 06700 Saint-Laurent-du-Var, France"
    },
    {
      "latitude": 47.39402339999999,
      "longitude": 0.6806344999999965,
      "name": "Goûter chez Sam",
      "address": "6 Place du Grand Marché, 37000 Tours, France"
    },
    {
      "latitude": 47.39482,
      "longitude": 0.6834800000000314,
      "name": "Chez Habibi",
      "address": "83 Rue du Commerce, 37000 Tours, France"
    },
    {
      "latitude": 48.85482900000001,
      "longitude": 2.375872999999956,
      "name": "DUNE",
      "address": "20 Rue Keller, 75011 Paris, France"
    },
    {
      "latitude": 47.745519,
      "longitude": 7.33594400000004,
      "name": "Pum",
      "address": "7 Rue du Mittelbach, 68100 Mulhouse, France"
    },
    {
      "latitude": 48.688581,
      "longitude": 6.184872000000041,
      "name": "La Table du petit Chaouen",
      "address": "27 Rue des Sœurs Macarons, 54000 Nancy, France"
    },
    {
      "latitude": 48.84924000000001,
      "longitude": 2.2825760000000628,
      "name": "Chipotle Mexican Grill — Beaugrenelle",
      "address": "1 Rue Linois, Paris"
    },
    {
      "latitude": 44.8360024,
      "longitude": -0.578233100000034,
      "name": "Greedy",
      "address": "62-64 avenue du Hâ 33000 Bordeaux"
    },
    {
      "latitude": 44.8407178,
      "longitude": -0.5817206000000397,
      "name": "Smart Green Corner",
      "address": "20 Rue Castelnau d'Auros, 33000 Bordeaux, France"
    },
    {
      "latitude": 49.2541254,
      "longitude": 4.02714960000003,
      "name": "Un indien dans la ville",
      "address": "7 Place Drouet d'Erlon, 51100 Reims, France"
    },
    {
      "latitude": 47.74439,
      "longitude": 7.334149000000026,
      "name": "La Tête de Chou",
      "address": "14 Rue des Trois Rois, 68100 Mulhouse"
    },
    {
      "latitude": 48.890961,
      "longitude": 2.2368099999999913,
      "name": "Chipotle Mexican Grill — La Défense",
      "address": "Centre Commercial Les 4 Temps, Les 4 Temps, 15 Parvis de la Défense, 92800 Puteaux"
    },
    {
      "latitude": 43.603666,
      "longitude": 1.4350239999999985,
      "name": "Le bonheur est dans le pot",
      "address": "17 Place Saint-Pierre, 31000 Toulouse, France"
    },
    {
      "latitude": 47.473429,
      "longitude": -0.5509140000000343,
      "name": "Au murmure des carottes",
      "address": "60 Rue du Mail, 49100 Angers, France"
    },
    {
      "latitude": 48.851807,
      "longitude": 2.3178269999999657,
      "name": "Ô Soleil De Naples",
      "address": "56 Rue de Babylone, 75007 Paris, France"
    },
    {
      "latitude": 45.775967,
      "longitude": 4.834988000000067,
      "name": "Le jardin intérieur",
      "address": "2 Rue Belfort, 69004 Lyon"
    },
    {
      "latitude": 48.9053123,
      "longitude": 2.344394599999987,
      "name": "HighTall Vital",
      "address": "101 Avenue Michelet, 93400 Saint-Ouen, France"
    },
    {
      "latitude": 48.849172,
      "longitude": 2.3395550000000185,
      "name": "Indonesia",
      "address": "3 Rue de Vaugirard, 75006 Paris, France"
    },
    {
      "latitude": 43.292963,
      "longitude": 5.377682999999934,
      "name": "Country Life Marseille",
      "address": "14 Rue Venture, 13001 Marseille, France"
    },
    {
      "latitude": 43.551947,
      "longitude": 7.017914000000019,
      "name": "Citronelle",
      "address": "16 Rue Bivouac Napoléon, 06400 Cannes, France"
    },
    {
      "latitude": 48.840808,
      "longitude": 2.3881830000000264,
      "name": "Oulala Traiteur",
      "address": "189 Rue de Charenton, 75012 Paris, France"
    },
    {
      "latitude": 46.813198,
      "longitude": -71.22759200000002,
      "name": "Om Prana",
      "address": "241 Rue Saint-Joseph E, Québec, QC G1K 3E8, Canada"
    },
    {
      "latitude": 43.439236,
      "longitude": -1.590061999999989,
      "name": "The Nourishing Box",
      "address": "Bidart, France"
    },
    {
      "latitude": 41.380379,
      "longitude": 2.1773210000000063,
      "name": "Gopal",
      "address": "Carrer dels Escudellers, 42, 08002 Barcelona, Barcelona, Espagne"
    },
    {
      "latitude": 41.380213,
      "longitude": 2.1691170000000284,
      "name": "Juicy Jones",
      "address": "Carrer del Cardenal Casañas, 7, 08002 Barcelona, Espagne"
    },
    {
      "latitude": 41.382234,
      "longitude": 2.1680200000000696,
      "name": "Veggie Garden",
      "address": "Carrer dels Àngels, 3, 08001 Barcelona, Espagne"
    },
    {
      "latitude": 52.512776,
      "longitude": 13.462259000000017,
      "name": "Ohlala",
      "address": "Mainzer Straße 18, 10247 Berlin, Allemagne"
    },
    {
      "latitude": 48.847396,
      "longitude": 2.370420999999965,
      "name": "Sain bio'z",
      "address": "34 Avenue Ledru-Rollin, 75012 Paris, France"
    },
    {
      "latitude": 49.252355,
      "longitude": 4.0254019999999855,
      "name": "La Maison de Mademoiselle Thi",
      "address": "130 Rue de Vesle, 51100 Reims, France"
    },
    {
      "latitude": 48.84264,
      "longitude": 2.5024009999999635,
      "name": "Les Délices de Gigi",
      "address": "67 Avenue Ledru Rollin Le Perreux-sur-Marne"
    },
    {
      "latitude": 45.779413,
      "longitude": 3.08442500000001,
      "name": "La BerGaMoThée",
      "address": "1 Place du Mazet, 63000 Clermont-Ferrand"
    },
    {
      "latitude": 48.859407,
      "longitude": 2.364111600000001,
      "name": "Jay & Joy",
      "address": "3 Rue Sainte-Anastase, 75003 Paris, France"
    },
    {
      "latitude": 50.8785463,
      "longitude": 4.7033040999999685,
      "name": "Vegaverso",
      "address": "Tiensestraat 20, 3000 Leuven, Belgique"
    },
    {
      "latitude": 51.5419196,
      "longitude": -0.1576341999999613,
      "name": "Manna",
      "address": "4 Erskine Rd, London NW3 3AJ, Royaume-Uni"
    },
    {
      "latitude": 37.174185,
      "longitude": -3.595033999999942,
      "name": "Hicuri Art Vegan",
      "address": "Plaza de los Gironés, 4, 18009 Granada, Granada, Espagne"
    },
    {
      "latitude": 50.6418979,
      "longitude": 2.9952964000000293,
      "name": "Celebrazioni",
      "address": "121 Rue Anne Delavaux, 59160 Lille, France"
    },
    {
      "latitude": 50.8279017,
      "longitude": 4.370428500000003,
      "name": "Ami",
      "address": "Rue Lesbroussart 13, 1050 Ixelles, Belgique"
    },
    {
      "latitude": 50.84552799999999,
      "longitude": 4.348694399999999,
      "name": "Kokob",
      "address": "Rue des Grands Carmes 10-12, 1000 Bruxelles, Belgique"
    },
    {
      "latitude": 48.584386,
      "longitude": 7.751441,
      "name": "Une fleur des champs",
      "address": "4 Rue des Charpentiers, 67000 Strasbourg, France"
    },
    {
      "latitude": 48.865864,
      "longitude": 2.3368379999999433,
      "name": "Damouri",
      "address": "41 Rue de Richelieu, 75001 Paris, France"
    },
    {
      "latitude": 48.866854,
      "longitude": 2.307657000000063,
      "name": "Siamin",
      "address": "19 Rue Bayard, 75008 Paris, France"
    },
    {
      "latitude": 48.832281,
      "longitude": 2.3460700000000543,
      "name": "Van Long",
      "address": "9 Rue du Champ de l'Alouette, 75013 Paris, France"
    },
    {
      "latitude": 49.184474,
      "longitude": -0.35975699999994504,
      "name": "Dolly's",
      "address": "16 Avenue de la Libération, 14000 Caen, France"
    },
    {
      "latitude": 48.815483,
      "longitude": 2.3205070000000205,
      "name": "Le Titi Touareg",
      "address": "92 Avenue Henri Ginoux, 92120 Montrouge"
    },
    {
      "latitude": 46.5215074,
      "longitude": 6.63999519999993,
      "name": "Le Nil Bleu",
      "address": "Place de l'Ours 1, 1005 Lausanne, Suisse"
    },
    {
      "latitude": 52.376602,
      "longitude": 4.894639999999981,
      "name": "TerraZen Centre",
      "address": "Sint Jacobsstraat 19 HS, 1012 NC Amsterdam, Pays-Bas"
    },
    {
      "latitude": 46.946945,
      "longitude": 7.442001000000005,
      "name": "Tibits — Bern",
      "address": "Gurtengasse 3, 3011 Bern, Suisse"
    },
    {
      "latitude": 46.985813,
      "longitude": 6.837598999999955,
      "name": "L'Aubier Eco-Hôtel Montezillon",
      "address": "Les Murailles 5, 2037 Montézillon, Suisse"
    },
    {
      "latitude": 46.990594,
      "longitude": 6.929993999999965,
      "name": "L'Ami Ami",
      "address": "Rue du Bassin 8, 2000 Neuchâtel, Suisse"
    },
    {
      "latitude": 49.253018,
      "longitude": 4.02842499999997,
      "name": "Le Cèdre du Liban",
      "address": "5, avenue du Maine 75015 Paris"
    },
    {
      "latitude": 43.614082,
      "longitude": 3.877318999999943,
      "name": "L'oignon givré",
      "address": "46 Rue de l'Université, 34000 Montpellier, France"
    },
    {
      "latitude": 11.2520958,
      "longitude": -85.87030199999998,
      "name": "Buddha's Garden",
      "address": "Avenida la Bolsa, San Juan Del Sur, Nicaragua"
    },
    {
      "latitude": 48.882816,
      "longitude": 2.373328000000015,
      "name": "Les Marmites Volantes",
      "address": "69 Rue Armand Carrel, 75019 Paris, France"
    },
    {
      "latitude": 48.871558,
      "longitude": 2.3505420000000186,
      "name": "La Petite Chaufferie",
      "address": "32 Rue de l'Échiquier, 75010 Paris, France"
    },
    {
      "latitude": 48.86125,
      "longitude": 2.3605969999999843,
      "name": "Yuman",
      "address": "70 Rue du Chevaleret, 75013 Paris"
    },
    {
      "latitude": 48.880667,
      "longitude": 2.3440650000000005,
      "name": "Pizza di Loretta",
      "address": "62 Rue Rodier, 75009 Paris, France"
    },
    {
      "latitude": 50.635617,
      "longitude": 3.063382000000047,
      "name": "Le Pain Quotidien — Lille Rihour",
      "address": "35 Place Rihour, 59800 Lille, France"
    },
    {
      "latitude": 48.866968,
      "longitude": 2.2787049999999454,
      "name": "Le Pain Quotidien — Paris Victor Hugo",
      "address": "150 Avenue Victor Hugo, 75116 Paris"
    },
    {
      "latitude": 37.39024700000001,
      "longitude": -6.001637999999957,
      "name": "Gaia",
      "address": "Calle Luis de Vargas, 4, 41001 Sevilla, Sevilla, Espagne"
    },
    {
      "latitude": 43.610145,
      "longitude": 3.87935200000004,
      "name": "Tripti Kulai",
      "address": "20 Rue Jacques Cœur, 34000 Montpellier"
    },
    {
      "latitude": 48.21558000000001,
      "longitude": 16.379714000000035,
      "name": "Harvest Café",
      "address": "Karmeliterplatz 1, 1020 Wien, Autriche"
    },
    {
      "latitude": 43.5910499,
      "longitude": 1.4447410999999875,
      "name": "Manger autrement chez Prasad",
      "address": "155 Grande Rue Saint-Michel, 31400 Toulouse, France"
    },
    {
      "latitude": 47.90023,
      "longitude": 1.9092439999999442,
      "name": "Angkor",
      "address": "228 Rue de Bourgogne, 45000 Orléans"
    },
    {
      "latitude": 43.6044432,
      "longitude": 1.4525187,
      "name": "Le Yéti",
      "address": "21 Rue de la Colombette, 31000 Toulouse"
    },
    {
      "latitude": 50.362408,
      "longitude": 3.51729,
      "name": "Sushi Val",
      "address": "41 Avenue du Sénateur Girard, 59300 Valenciennes, France"
    },
    {
      "latitude": 48.102353,
      "longitude": -1.71337,
      "name": "Pique-Prune — Cleuney",
      "address": "132 Rue Eugène Pottier, 35000 Rennes, France"
    },
    {
      "latitude": 48.637804,
      "longitude": -2.019055,
      "name": "Café Crêperie de la Plage",
      "address": "Rue des Bas Sablons Saint-Malo"
    },
    {
      "latitude": 48.778591,
      "longitude": 2.29121,
      "name": "Crêperie Garnier",
      "address": "4 Place du Général de Gaulle, 92330 Sceaux"
    },
    {
      "latitude": 43.299375,
      "longitude": 5.377497,
      "name": "Grain de Sable",
      "address": "34 Rue du Baignoir, 13001 Marseille, France"
    },
    {
      "latitude": 48.8662633,
      "longitude": 2.3359812999999576,
      "name": "Nest ",
      "address": "9 Rue Villedo, 75001 Paris, France"
    },
    {
      "latitude": 48.879205,
      "longitude": 2.366604999999936,
      "name": "Kheak & Vero",
      "address": "1 Rue Alexandre Parodi, 75010 Paris"
    },
    {
      "latitude": 48.11528400000001,
      "longitude": -1.6787890000000516,
      "name": "Black Temple Food",
      "address": "4 Passage des Carmélites, 35000 Rennes, France"
    },
    {
      "latitude": 48.8410204,
      "longitude": 2.361677900000018,
      "name": "Bibimbap",
      "address": "32 Boulevard de l'Hôpital, 75005 Paris, France"
    },
    {
      "latitude": 48.910865,
      "longitude": 2.333677999999964,
      "name": "Bon Appétit",
      "address": "9 Avenue Gabriel Péri, 93400 Saint-Ouen, France"
    },
    {
      "latitude": 48.853872,
      "longitude": 2.4205560000000332,
      "name": "Casa Poblano",
      "address": "15 Rue Lavoisier, 93100 Montreuil, France"
    },
    {
      "latitude": 47.39440099999999,
      "longitude": 0.6806940000000168,
      "name": "Shelter",
      "address": "19 Rue du Grand Marché, 37000 Tours, France"
    },
    {
      "latitude": 43.2894616,
      "longitude": 5.387346999999977,
      "name": "Londonewyork",
      "address": "77 Rue de Lodi, 13006 Marseille, France"
    },
    {
      "latitude": 50.68932,
      "longitude": 3.170688000000041,
      "name": "Cooperative Baraka",
      "address": "20 Rue de Sébastopol, 59100 Roubaix, France"
    },
    {
      "latitude": 48.846793,
      "longitude": 2.2938890000000356,
      "name": "Brasserie Lola",
      "address": "99 rue du Théâtre Paris"
    },
    {
      "latitude": 48.87481529999999,
      "longitude": 2.3255444000000125,
      "name": "La pause libanaise",
      "address": "08 Rue de l'Isly, 75008 Paris, France"
    },
    {
      "latitude": 46.34842889999999,
      "longitude": 6.3564331999999695,
      "name": "Ed's kitchen",
      "address": "Route du Lac, 74140 Excenevex, France"
    },
    {
      "latitude": 48.877809,
      "longitude": 2.3488139999999476,
      "name": "La Presqu'Ile",
      "address": "113 Rue du Faubourg Poissonnière, 75009 Paris, France"
    },
    {
      "latitude": 45.192513,
      "longitude": 5.730308000000037,
      "name": "Wokbar",
      "address": "14 Rue Barnave, 38000 Grenoble, France"
    },
    {
      "latitude": 45.1652784,
      "longitude": 5.697064899999987,
      "name": "Sapori Antichi",
      "address": "69 Rue de la Liberté, 38180 Seyssins, France"
    },
    {
      "latitude": 48.867757,
      "longitude": 2.3353889999999637,
      "name": "Végitaï",
      "address": "39/41 Passage Choiseul, 75002 Paris"
    },
    {
      "latitude": 48.863434,
      "longitude": 2.3631319999999505,
      "name": "Nanashi",
      "address": "57 Rue Charlot, 75003 Paris, France"
    },
    {
      "latitude": 48.825504,
      "longitude": 2.3537360000000263,
      "name": "La bonne heure",
      "address": "72 Rue du Moulin des Prés, 75013 Paris, France"
    },
    {
      "latitude": 16.2417301,
      "longitude": -61.565840200000025,
      "name": "Vapor é Vous",
      "address": "Immeuble Tsahal, 51 rue Becquerel, Jarry, Guadeloupe"
    },
    {
      "latitude": 45.88187,
      "longitude": -1.251585,
      "name": "Maha Prana",
      "address": "20 Route du Large, 17550 Dolus-d'Oléron"
    },
    {
      "latitude": 46.207108,
      "longitude": 6.145691,
      "name": "Qibi Urban Smart Food",
      "address": "Rue Kléberg 12, 1201 Genève, Suisse"
    },
    {
      "latitude": 48.885204,
      "longitude": 2.365449,
      "name": "Cantine Vagabonde",
      "address": "11 Rue d'Aubervilliers, 75019 Paris, France"
    },
    {
      "latitude": 48.861174,
      "longitude": 2.344402,
      "name": "Beytouti",
      "address": "44 Rue Saint Honoré, 75001 Paris, France"
    },
    {
      "latitude": 48.851807,
      "longitude": 2.366342,
      "name": "Grand Appétit",
      "address": "9 Rue de la Cerisaie, 75004 Paris, France"
    },
    {
      "latitude": 44.8355503,
      "longitude": -0.5836331,
      "name": "La cuisine de Johanna",
      "address": "44 Cours Anatole France, 33000 Bordeaux, France"
    },
    {
      "latitude": 48.114765,
      "longitude": -1.676024,
      "name": "Dolma",
      "address": "36 Rue Saint-Melaine, 35000 Rennes, France"
    },
    {
      "latitude": 48.114367,
      "longitude": -1.679732,
      "name": "Ethnic Food",
      "address": "3 Place Sainte-Anne, 35000 Rennes, France"
    },
    {
      "latitude": 48.867429,
      "longitude": 2.344029,
      "name": "Loumi's",
      "address": "106 Rue Montmartre, 75002 Paris, France"
    },
    {
      "latitude": 48.908821,
      "longitude": 0.26453,
      "name": "La Maison du Vert",
      "address": "70 Le Bourg, 61120 Ticheville, France"
    },
    {
      "latitude": 43.608501,
      "longitude": 1.449604,
      "name": "Ô Bali",
      "address": "31 Rue Denfert Rochereau, 31000 Toulouse, France"
    },
    {
      "latitude": 51.217365,
      "longitude": 4.403891,
      "name": "Lombardia Natural Food",
      "address": "Lombardenvest 78, 2000 Antwerpen, Belgique"
    },
    {
      "latitude": 50.630081,
      "longitude": 3.057225,
      "name": "Sushi Boutik",
      "address": "133 Rue Solférino, 59000 Lille, France"
    },
    {
      "latitude": 48.1392776,
      "longitude": -1.6910584,
      "name": "Pique-Prune — St Grégoire",
      "address": "8 Allée de la Cerisaie, 35760 Saint-Grégoire, France"
    },
    {
      "latitude": 48.1132017,
      "longitude": -1.6069621000000003,
      "name": "Pique-Prune — Cesson",
      "address": "8 Avenue des Peupliers, 35510 Cesson-Sévigné, France"
    },
    {
      "latitude": 50.63257,
      "longitude": 3.065109,
      "name": "La Source",
      "address": "13 Rue du Plat, 59800 Lille, France"
    },
    {
      "latitude": 50.6296873,
      "longitude": 3.061069599999996,
      "name": "Cô Dô Huê",
      "address": "16 Rue Nicolas Leblanc, 59000 Lille, France"
    },
    {
      "latitude": 43.609681,
      "longitude": 3.875809000000004,
      "name": "Umiyaki",
      "address": "9 Rue de la Friperie, 34000 Montpellier, France"
    },
    {
      "latitude": 43.579882,
      "longitude": 7.125550999999973,
      "name": "Chez Helen",
      "address": "35 Rue des Revennes, 06600 Antibes"
    },
    {
      "latitude": 47.899667,
      "longitude": 1.909366999999975,
      "name": "Hikari",
      "address": "28 Rue de la Poterne, 45000 Orléans, France"
    }
  ]
}